City_ID,City,Country,Max Temp,Current Description,Lat,Lng,Hotel Name
0,New Norfolk,AU,52.92,overcast clouds,-42.7826,147.0587,The Shingles Riverside Cottages
1,Mayumba,GA,74.28,overcast clouds,-3.432,10.6554,LIKWALE LODGE
2,Shingu,JP,79.97,overcast clouds,33.7333,135.9833,Shingu UI Hotel
4,Helena,US,72.36,clear sky,46.5927,-112.0361,"Holiday Inn Express & Suites Helena, an IHG Hotel"
5,Tateyama,JP,78.1,light rain,34.9833,139.8667,Tateyama Seaside Hotel
6,Faya,SA,64.92,overcast clouds,18.3851,42.4509,املاك خالد الشعشوع
7,Kapaa,US,84.52,clear sky,22.0752,-159.319,Sheraton Kauai Coconut Beach Resort
8,Sangmelima,CM,67.46,overcast clouds,2.9333,11.9833,gamestar hotel
10,Bathsheba,BB,83.01,scattered clouds,13.2167,-59.5167,Atlantis Hotel
11,Busselton,AU,53.46,overcast clouds,-33.65,115.3333,Observatory Guest House
13,Maragogi,BR,73.96,few clouds,-9.0122,-35.2225,Salinas do Maragogi All Inclusive Resort
15,Rikitea,PF,72.41,clear sky,-23.1203,-134.9692,People ThankYou
16,Kruisfontein,ZA,56.88,overcast clouds,-34.0033,24.7314,Oyster Bay House Rental
17,Butaritari,KI,82.9,overcast clouds,3.0707,172.7902,Isles Sunset Lodge
18,Jamestown,US,77.02,broken clouds,42.097,-79.2353,Hampton Inn & Suites Jamestown
19,Bengkulu,ID,74.08,broken clouds,-3.8004,102.2655,Grage Hotel Bengkulu
20,Northam,GB,55.62,scattered clouds,51.0333,-4.2167,Durrant House Hotel
22,Nayoro,JP,69.69,overcast clouds,44.3506,142.4578,名寄 大雪荘
23,Yantongshan,CN,59.85,scattered clouds,43.2919,126.0094,Home Inn Hotel
24,Arraial Do Cabo,BR,66.43,few clouds,-22.9661,-42.0278,Pousada Porto Praia
26,Samarai,PG,82.87,overcast clouds,-10.6167,150.6667,Nuli Sapi
27,Kodiak,US,65.71,clear sky,57.79,-152.4072,Best Western Kodiak Inn
28,Carnarvon,AU,64.11,clear sky,-24.8667,113.6333,Hospitality Carnarvon
29,Saint-Philippe,RE,69.39,light rain,-21.3585,55.7679,Le four à pain
31,Marovoay,MG,68.34,clear sky,-16.1,46.6333,Hôtel les Oliviers Marovoay
32,Santa Cruz,BO,84.25,clear sky,-17.8,-63.1667,Aviador Hotel Boutique
33,Chapleau,CA,68.09,overcast clouds,47.8405,-83.4034,Nemegosenda Lake Lodge
34,Cape Town,ZA,55.11,scattered clouds,-33.9258,18.4232,"Radisson Blu Hotel Waterfront, Cape Town"
36,College,US,54.46,broken clouds,64.8569,-147.8028,Pike's Waterfront Lodge
37,Kolda,SN,77.31,thunderstorm,12.8833,-14.95,Hôtel Hobbe Chasse
38,Denpasar,ID,74.86,broken clouds,-8.65,115.2167,OYO 3156 Hotel Warta 2
39,Bethel,US,71.69,clear sky,41.3712,-73.414,Courtyard by Marriott Danbury
40,San Cristobal,VE,78.98,overcast clouds,7.7669,-72.225,Pirineos
42,Vila Franca Do Campo,PT,72.01,few clouds,37.7167,-25.4333,Pestana Bahia Praia
44,Vao,NC,72.34,broken clouds,-22.6667,167.4833,Hotel Kou-Bugny
45,Castro,BR,51.12,clear sky,-24.7911,-50.0119,CHACARA BAILLY
46,Katsuura,JP,79.95,overcast clouds,35.1333,140.3,Katsuura Hotel Mikazuki
47,Fairbanks,US,54.48,broken clouds,64.8378,-147.7164,Westmark Fairbanks Hotel & Conference Center
48,Whitley Bay,GB,53.51,clear sky,55.0397,-1.4471,Cara Guesthouse
49,Tura,IN,73.69,scattered clouds,25.5198,90.2201,Hotel RIKMAN Continental
50,Itaituba,BR,80.11,overcast clouds,-4.2761,-55.9836,Hotel Campos
51,Bitung,ID,72.45,overcast clouds,1.4451,125.1824,K2 Lembeh
52,Margate,GB,54.7,scattered clouds,51.3813,1.3862,Premier Inn Margate hotel
53,Kavieng,PG,83.01,broken clouds,-2.5744,150.7967,Nusa Island Retreat
54,Mangrol,IN,79.99,overcast clouds,21.1167,70.1167,Hotel The Royal Honours
55,Lorengau,PG,82.96,overcast clouds,-2.0226,147.2712,Lorengau Harbourside Hotel
58,Komsomolskiy,UZ,66.92,broken clouds,40.4272,71.7189,Ikathouse
59,Bowen,AU,77.31,scattered clouds,-20.0167,148.2333,Castle Motor Lodge Motel
60,Sao Filipe,CV,78.1,few clouds,14.8961,-24.4956,Hotel Xaguate
61,Balkanabat,TM,77.14,clear sky,39.5108,54.3671,Nebitchi Hotel
62,Mananjary,MG,64.13,clear sky,-21.2167,48.3333,Vahiny Lodge
63,Guerrero Negro,MX,74.3,clear sky,27.9769,-114.0611,"Casa Laguna, Bed & Breakfast"
64,Matara,LK,78.01,overcast clouds,5.9485,80.5353,Amaloh Boutique Resort
65,Eyl,SO,77.0,scattered clouds,7.9803,49.8164,Amiin Hotel
66,Coquimbo,CL,58.73,broken clouds,-29.9533,-71.3436,Hotel San Juan
67,Hobart,AU,53.26,scattered clouds,-42.8794,147.3294,St Ives Hobart Accommodation Tasmania
69,Fortuna,US,64.92,overcast clouds,40.5982,-124.1573,Super 8 by Wyndham Fortuna
70,Port Alfred,ZA,60.19,overcast clouds,-33.5906,26.891,The Halyards Hotel
71,Deer Lake,CA,55.26,broken clouds,49.1667,-57.4316,"Holiday Inn Express Deer Lake, an IHG Hotel"
72,Vaini,TO,78.96,broken clouds,-21.2,-175.2,Keleti Beach Resort
73,Dharchula,IN,68.31,overcast clouds,29.85,80.5333,Mahara Hotel
74,East London,ZA,64.24,overcast clouds,-33.0153,27.9116,Tu Casa
75,Champerico,GT,81.14,overcast clouds,14.3,-91.9167,"Hotel y restaurante ""El Diamante"""
77,Norman Wells,CA,64.44,scattered clouds,65.282,-126.8329,Heritage Hotel
78,Lazaro Cardenas,MX,76.55,overcast clouds,17.9583,-102.2,HOTEL QUINTA ANTIGUA
79,Souillac,MU,70.18,scattered clouds,-20.5167,57.5167,Shanti Maurice Resort & Spa
81,Avarua,CK,78.85,few clouds,-21.2078,-159.775,Paradise Inn
83,Harper,LR,76.32,light rain,4.375,-7.7169,Screensaver
87,Bougouni,ML,70.72,light rain,11.417,-7.479,Non Stop
89,Zwedru,LR,70.68,overcast clouds,6.0667,-8.1281,Elijah Worjloh
90,Nampula,MZ,63.05,clear sky,-15.1165,39.2666,Ruby Backpackers
91,Torbay,CA,56.26,broken clouds,47.6666,-52.7314,Gallows Cove
92,Port Elizabeth,ZA,59.31,clear sky,-33.918,25.5701,39 On Nile Guest House
96,Saint-Pierre,RE,69.48,few clouds,-21.3393,55.4781,Alize Plage
98,Vila Velha,BR,66.15,broken clouds,-20.3297,-40.2925,Hotel Vitória Palace
100,Bambous Virieux,MU,71.22,light rain,-20.3428,57.7575,Casa Tia Villa
101,Severo-Kurilsk,RU,51.55,few clouds,50.6789,156.125,Kak Doma
102,Lowestoft,GB,52.41,broken clouds,52.4752,1.7516,Premier Inn Lowestoft hotel
103,Monkey Bay,MW,75.74,overcast clouds,-14.0728,34.9201,Mufasa Eco Lodge
105,Puerto Ayora,EC,71.56,scattered clouds,-0.7393,-90.3518,Finch Bay Galapagos Hotel
106,Sambava,MG,66.69,light rain,-14.2667,50.1667,Melrose
107,Yulara,AU,56.7,clear sky,-25.2406,130.9889,Desert Gardens Hotel - Ayers Rock Resort
109,Praia Da Vitoria,PT,75.45,broken clouds,38.7333,-27.0667,Hotel Branco I
114,Florence,IT,57.88,clear sky,43.7667,11.25,Hotel Nuova Italia
118,Mar Del Plata,AR,58.08,light rain,-38.0023,-57.5575,Gran Hotel Mar del Plata
119,Chapais,CA,55.18,overcast clouds,49.7834,-74.8492,Hôtel Opémiska
121,Port Macquarie,AU,59.9,broken clouds,-31.4333,152.9167,Rydges Port Macquarie
124,Yellowknife,CA,54.12,few clouds,62.456,-114.3525,The Explorer Hotel
126,Moyale,KE,69.85,clear sky,3.5167,39.0584,La Tahzan Guest House
128,San Quintin,MX,72.3,clear sky,30.4833,-115.95,Don Eddie's Sport Fishing Center
129,Coolum Beach,AU,72.1,clear sky,-26.5333,153.1,Coolum Beach Resort
130,Ribeira Grande,PT,74.61,overcast clouds,38.5167,-28.7,Quinta da Meia Eira
131,Port Hedland,AU,60.85,clear sky,-20.3167,118.5667,The Esplanade Hotel
132,Ponta Do Sol,PT,75.83,scattered clouds,32.6667,-17.1,Hotel do Campo
133,Cidreira,BR,61.59,clear sky,-30.1811,-50.2056,Hotel Castelo
136,Meulaboh,ID,74.68,light rain,4.1363,96.1285,Kost Pria
137,Hermanus,ZA,51.8,overcast clouds,-34.4187,19.2345,Misty Waves Boutique Hotel
138,Faanui,PF,78.22,clear sky,-16.4833,-151.75,Bora-Bora Pearl Beach Resort & Spa
139,Kenai,US,57.29,clear sky,60.5544,-151.2583,Aspen Extended Stay Suites
141,Sinnamary,GF,80.51,clear sky,5.3833,-52.95,ALETHEIA Appartement Sinnamary
142,Georgetown,MY,77.95,few clouds,5.4112,100.3354,Cititel Penang
143,Laguna,US,82.15,clear sky,38.421,-121.4238,"Holiday Inn Express & Suites Elk Grove Central - Hwy 99, an IHG Hotel"
146,Kirchen,DE,50.95,overcast clouds,50.8,7.8833,Hotel & Restaurant ‚zum weißen Stein‘
147,Vaitape,PF,78.15,clear sky,-16.5167,-151.75,Conrad Bora Bora Nui
148,Pisco,PE,64.45,clear sky,-13.7,-76.2167,Hotel San Isidro Oficial
149,Haines Junction,CA,57.15,broken clouds,60.7522,-137.5108,Parkside Inn
150,Half Moon Bay,US,76.78,mist,37.4636,-122.4286,"The Ritz-Carlton, Half Moon Bay"
151,Jiayuguan,CN,60.22,broken clouds,39.8167,98.3,Jiugang Hotel - Jiayuguan
152,Elat,IL,82.24,clear sky,29.5581,34.9482,Club Hotel Eilat
154,Glenwood Springs,US,79.41,broken clouds,39.5505,-107.3248,Glenwood Springs Cedar Lodge
156,Marawi,PH,72.77,broken clouds,7.9986,124.2928,Derogongan Residence
158,Lata,PT,69.93,broken clouds,40.1629,-8.3327,Casa Maquia
159,Springbok,ZA,50.04,overcast clouds,-29.6643,17.8865,Undulata Country Lodge
160,Portland,US,73.58,overcast clouds,45.5234,-122.6762,Embassy Suites by Hilton Portland Downtown
161,Shepsi,RU,76.71,overcast clouds,44.0361,39.1489,Otel' Chayka
163,Bejar,ES,68.58,broken clouds,40.3864,-5.7634,Posada Puerta Grande
164,Palma Del Rio,ES,77.32,clear sky,37.7002,-5.2812,Hotel Monasterio de San Francisco
165,Pavilosta,LV,57.11,overcast clouds,56.8879,21.1859,"Hotel ""Vēju paradīze"""
166,Nagato,JP,79.09,overcast clouds,34.3833,131.2,いそう庵
167,Kabanjahe,ID,62.1,overcast clouds,3.1001,98.4908,Kos-Kosan wanita muslim bagoes kabanjahe
168,Caraquet,CA,57.74,scattered clouds,47.7941,-64.9386,Gite Le Poirier
169,Tamano,JP,81.01,overcast clouds,34.4833,133.95,Yado Seven Beach
170,Najran,SA,81.25,overcast clouds,17.4924,44.1277,محمد هادي ال فطيح
171,Goderich,CA,81.91,scattered clouds,43.7501,-81.7165,Harmony Inn
172,Minbu,MM,75.76,overcast clouds,20.1833,94.8833,Pan Tha Tin Guest House - Burmese Only
173,Touros,BR,77.04,scattered clouds,-5.1989,-35.4608,INN NEW HORIZON
174,Saldanha,ZA,51.85,overcast clouds,-33.0117,17.9442,Blue Bay Lodge
175,Axim,GH,74.77,overcast clouds,4.8699,-2.2405,Axim Beach Resort And Spa
176,Sitka,US,57.09,few clouds,57.0531,-135.33,Westmark Sitka
177,Hithadhoo,MV,81.32,few clouds,-0.6,73.0833,Scoop Guest House
178,Hay River,CA,57.16,scattered clouds,60.8156,-115.7999,Ptarmigan Inn
180,Aksu,CN,70.14,overcast clouds,41.1231,80.2644,Pudong Holiday Hotel
181,Arroyo,ES,62.08,clear sky,41.6096,-4.7969,Hotel El Jardín de la Abadía
182,Thompson,CA,66.36,broken clouds,55.7435,-97.8558,Burntwood Hotel
183,Namatanai,PG,84.56,scattered clouds,-3.6667,152.4333,Seagulls Inn Namatani
184,Port Lincoln,AU,55.22,overcast clouds,-34.7333,135.8667,Port Lincoln Hotel
185,Tuatapere,NZ,56.95,light rain,-46.1333,167.6833,Ron and Tony's Bed & Breakfast
187,Kloulklubed,PW,79.3,overcast clouds,7.0419,134.2556,Storyboard Beach Resort
189,Atuona,PF,77.07,clear sky,-9.8,-139.0333,Hôtel Hiva Oa Hanakee Lodge
190,Coripata,BO,65.66,broken clouds,-16.3,-67.6,"Hostal ""GARDEN"""
191,Tabou,CI,76.03,light rain,4.423,-7.3528,hotêl doufoulougou
193,Lagoa,PT,73.22,overcast clouds,39.05,-27.9833,Casa Das Faias
194,Zunyi,CN,70.66,broken clouds,27.6867,106.9072,Bishiluo Hostel
195,Kalabo,ZM,68.45,scattered clouds,-14.97,22.6814,Sikakubete Guest House Kalabo Town Council
197,North Bend,US,62.24,clear sky,43.4065,-124.2243,Red Lion Hotel Coos Bay
198,Asau,RO,54.52,overcast clouds,46.4333,26.4,Casa Mika Ciobanus
200,Tiarei,PF,82.42,light rain,-17.5333,-149.3333,Le Rocher de Tahiti
201,Korla,CN,68.27,overcast clouds,41.7597,86.1469,Gulisitan Hotel
202,Hartford,US,69.26,clear sky,41.7668,-72.7662,West Hartford Inn
203,Imbituba,BR,59.43,clear sky,-28.24,-48.6703,Praia Hotel Imbituba
205,Nikolskoye,RU,51.69,light rain,59.7035,30.7861,Tourist House - Sablino
206,Savannah Bight,HN,84.04,scattered clouds,16.45,-85.85,Villa on Dunbar Rock
207,Chippewa Falls,US,79.57,clear sky,44.9369,-91.3929,AmericInn by Wyndham Chippewa Falls
208,Nazare,BR,69.98,few clouds,-13.035,-39.0144,Hotel Victória Réghia
209,Quelimane,MZ,75.15,clear sky,-17.8786,36.8883,Hotel Flamingo
212,Alyangula,AU,78.67,broken clouds,-13.8483,136.4192,Groote Eylandt Lodge
213,Phangnga,TH,80.64,broken clouds,8.4509,98.5298,Sunimit Mansion
214,Khani,GE,62.17,clear sky,41.9563,42.9566,კურორტი ზეკარი/Resort Zekari
215,Durban,ZA,67.93,broken clouds,-29.8579,31.0292,Hilton Durban
217,Sao Sebastiao,BR,63.05,broken clouds,-23.76,-45.4097,Hotel Recanto dos Pássaros
218,Zvishavane,ZW,65.08,clear sky,-20.3267,30.0665,Hotel Boutique Runde
219,Los Llanos De Aridane,ES,71.35,few clouds,28.6585,-17.9182,Valle Aridane
222,Yarmouth,US,65.98,clear sky,41.7057,-70.2286,Blue Rock Resort
223,Chuy,UY,58.59,broken clouds,-33.6971,-53.4616,Nuevo Hotel Plaza
224,Mecca,SA,84.61,broken clouds,21.4267,39.8261,"Makkah Clock Royal Tower, A Fairmont Hotel"
225,Lyubytino,RU,50.45,broken clouds,58.8122,33.3922,"Gostinitsa ""U Mikhalycha"""
226,Cabinda,AO,73.83,overcast clouds,-5.55,12.2,Hotel Maiombe
228,Bredasdorp,ZA,52.66,overcast clouds,-34.5322,20.0403,Bredasdorp Country Manor
229,Iralaya,HN,79.03,overcast clouds,15.0,-83.2333,Iglesia morava renovada
232,Lethem,GY,79.83,overcast clouds,3.3803,-59.7968,Savannah Inn
233,Santa,PH,77.68,few clouds,17.486,120.4348,Monte Leah Beach Resort
234,Palmer,US,68.61,few clouds,42.1584,-72.3287,Wedgewood Motel
235,Muros,ES,69.84,overcast clouds,42.7762,-9.0603,Apartment Av. Castelao
236,Bow Island,CA,69.48,clear sky,49.8668,-111.3684,Silver Sage Motel
240,Buin,CL,59.32,broken clouds,-33.7333,-70.75,Paihuen
241,Grand Forks,US,64.13,few clouds,47.9417,-97.4337,Warrior Inn
243,Abancay,PE,66.24,scattered clouds,-13.6339,-72.8814,Siball Hotel
244,Labuan,MY,75.56,scattered clouds,5.2767,115.2417,Tiara Labuan Hotel
245,Tezu,IN,73.98,overcast clouds,27.9167,96.1667,Circuit House
246,Caravelas,BR,67.93,overcast clouds,-17.7125,-39.2481,Pousada dos Navegantes
249,Kieta,PG,84.96,light rain,-6.2167,155.6333,Uruna Bay Retreat
250,La Ronge,CA,66.42,broken clouds,55.1001,-105.2842,Northland Motor Hotel
251,Rio Grande,BR,60.94,overcast clouds,-32.035,-52.0986,Hotel Atlântico Rio Grande
252,Montepuez,MZ,65.41,clear sky,-13.1256,38.9997,PembaAparthotel
253,Calama,CL,64.89,few clouds,-22.4667,-68.9333,Park Hotel Calama
254,Shiyan,CN,70.54,overcast clouds,32.6475,110.7781,Fenghuang Garden Holiday Hotel
255,Codrington,AU,50.59,overcast clouds,-38.2667,141.9667,Codrington Gardens Bed And Breakfast
257,Mendi,PG,64.62,overcast clouds,-6.1761,143.6513,Kiburu Lodge
258,Santa Rosa,PH,79.11,overcast clouds,14.3122,121.1114,Erlyn’s Sta Rosa City Home
260,Catalao,BR,74.32,broken clouds,-18.1658,-47.9464,Mara Turismo Hotel
263,Ferme-Neuve,CA,54.16,overcast clouds,46.7001,-75.4493,Pourvoirie Club Fontbrune Ltee
266,Great Yarmouth,GB,52.41,broken clouds,52.6083,1.7305,Comfort Hotel Great Yarmouth
267,Morant Bay,JM,78.42,scattered clouds,17.8815,-76.4093,Whispering Bamboo Cove Resort
268,Hambantota,LK,78.85,overcast clouds,6.1241,81.1185,Bungalow 63
270,Adiake,CI,74.37,broken clouds,5.2863,-3.304,HOTEL COEUR D'OR
271,Esperance,AU,53.38,scattered clouds,-33.8667,121.9,Hospitality Esperance
272,Naze,JP,77.92,moderate rain,28.3667,129.4833,Shishime Hotel
273,Aljezur,PT,68.0,scattered clouds,37.3191,-8.8033,Amazigh Hostel
275,Cascais,PT,73.94,scattered clouds,38.6979,-9.4215,Hotel Vila Galé Cascais
277,Praia,CV,79.34,few clouds,14.9215,-23.5087,LT Aparthotel
278,Olinda,BR,78.53,scattered clouds,-8.0089,-34.8553,Flat Quatro Rodas Olinda
279,Blackfalds,CA,61.07,broken clouds,52.3834,-113.7853,Microtel Inn & Suites by Wyndham Blackfalds Red Deer North
282,Malindi,KE,74.71,few clouds,-3.2175,40.1191,African House Resort
283,Esil,KZ,51.04,few clouds,51.9556,66.4042,Egorkino Hotel
284,Mporokoso,ZM,72.82,overcast clouds,-9.3727,30.125,Kutemwa lodge
285,Xining,CN,55.89,overcast clouds,36.6167,101.7667,Super Leisure Hotel
286,Muroto,JP,81.7,light rain,33.2833,134.15,Oota Ryokan
287,Bridgton,US,62.78,scattered clouds,44.0548,-70.7128,Noble House Inn
288,Vila Do Maio,CV,79.59,broken clouds,15.1333,-23.2167,Hotel Marilu
289,Erice,IT,71.96,few clouds,38.037,12.5865,I Mulini Resort
291,Morecambe,GB,52.09,broken clouds,54.0684,-2.8611,The Midland
292,Hasaki,JP,81.28,overcast clouds,35.7333,140.8333,Inubosaki Kanko Hotel
293,Tuktoyaktuk,CA,51.8,broken clouds,69.4541,-133.0374,End of The Road Ltd.
294,Nouadhibou,MR,75.18,clear sky,20.931,-17.0347,El Medina
295,Winneba,GH,74.82,overcast clouds,5.3511,-0.6231,Windy Lodge & Beach Resort
298,Kirakira,SB,82.65,broken clouds,-10.4544,161.9205,SanBiz Lodge
299,Itainopolis,BR,82.81,clear sky,-7.4469,-41.4783,Pousada Jenipapo
300,Liverpool,GB,57.7,overcast clouds,53.4106,-2.9779,Premier Inn Liverpool City Centre (Moorfields) hotel
303,Ballina,AU,67.78,broken clouds,-28.8667,153.5667,Ramada Hotel & Suites by Wyndham Ballina Byron
305,Leiyang,CN,76.91,clear sky,26.4024,112.8591,Dongyang Hotel
306,Santa Maria,BR,63.7,clear sky,-29.6842,-53.8069,Hotel Morotin
308,Camopi,GF,80.47,scattered clouds,3.1655,-52.3158,La pousada
311,Kiunga,PG,76.01,overcast clouds,-6.1219,141.2906,Airport Lodge Kiunga
314,Leh,IN,51.69,clear sky,34.1667,77.5833,Hotel Ladakh Greens
315,Aklavik,CA,57.2,broken clouds,68.2191,-135.0107,Aklavik Inn
317,Sungaipenuh,ID,63.21,overcast clouds,-2.0833,101.3833,Penginapan Citra Alam
319,Turinsk,RU,57.88,overcast clouds,58.0458,63.696,hotel Arthur
320,Fredericton,CA,59.85,clear sky,45.9454,-66.6656,"Crowne Plaza Fredericton-Lord Beaverbrook, an IHG Hotel"
321,Narathiwat,TH,76.86,light rain,6.3333,101.75,MUSOR
322,Oistins,BB,82.49,scattered clouds,13.0667,-59.5333,Butterfly Beach Hotel
323,Encruzilhada,BR,64.72,broken clouds,-15.5314,-40.9094,Hotel e Restaurante Rio Pardo
324,Padang,ID,74.86,overcast clouds,-0.9492,100.3543,Mercure Padang
325,Mollendo,PE,61.57,broken clouds,-17.0231,-72.0147,Hostal La Casa de Melgar
326,Jalu,LY,79.92,clear sky,29.0331,21.5482,صاحبة الفخامة
327,Samur,RU,71.46,clear sky,41.8253,48.486,Samur
328,Inhambane,MZ,70.86,clear sky,-23.865,35.3833,Oceano
329,Songjianghe,CN,60.91,scattered clouds,42.1859,127.479,Sijisheng Fashion Guest House
330,Puerto Escondido,MX,74.23,overcast clouds,15.85,-97.0667,Aldea del Bazar Hotel and Spa
331,Amahai,ID,77.31,overcast clouds,-3.3333,128.9167,HOTEL ISABELA
332,Armacao De Pera,PT,74.08,scattered clouds,37.1026,-8.357,VILA VITA Parc Resort & Spa
334,Pasuruan,ID,75.09,broken clouds,-7.6453,112.9075,Pasuruan Hotel
336,Wanlaweyn,SO,74.35,scattered clouds,2.6185,44.8938,GAASHAAN HOME
338,Emerald,AU,65.34,clear sky,-23.5333,148.1667,The Irish Village
339,Bubaque,GW,80.87,overcast clouds,11.2833,-15.8333,"Casa Dora, Bubaque"
341,Bouna,CI,71.56,overcast clouds,9.2667,-3.0,Hôtel lababa
343,Aldergrove,CA,70.09,broken clouds,49.058,-122.4709,Best Western Plus Country Meadows Inn
344,San Javier,ES,78.98,few clouds,37.8063,-0.8374,Hotel Mar Menor
345,Safaga,EG,83.98,clear sky,26.7292,33.9365,Lamar Resort Abu Soma
346,Lufilufi,WS,83.98,scattered clouds,-13.8745,-171.5986,Leuaina Beach Resort and Spa
348,Pokaran,IN,80.24,clear sky,26.9167,71.9167,Motel Pokaran - RTDC
349,Huinan,CN,61.63,clear sky,42.6225,126.2614,Jinxi Fashion Hotel
350,Dongsheng,CN,55.72,few clouds,39.8161,109.9776,Crowne Plaza Ordos
351,La Seyne-Sur-Mer,FR,64.89,clear sky,43.0982,5.8847,Hôtel Première Classe Toulon La Seyne Sur Mer
353,Portsmouth,GB,53.96,scattered clouds,50.799,-1.0913,Royal Beach Hotel
354,Taree,AU,61.11,scattered clouds,-31.9,152.4667,All Seasons Country Lodge Taree
356,Talara,PE,65.91,scattered clouds,-4.5772,-81.2719,Hostal Oro Negro
358,Nancha,CN,58.59,overcast clouds,47.1333,129.2667,Communications Hotel
361,Westport,US,71.42,clear sky,41.1415,-73.3579,The Westport Inn
362,Jining,CN,68.43,clear sky,35.405,116.5814,Yunhe Star Hotel
363,Dubbo,AU,51.93,broken clouds,-32.25,148.6167,Quality Inn Dubbo International
365,Kipini,KE,75.49,clear sky,-2.5257,40.5262,Delta Sea Mall
367,Finschhafen,PG,82.11,broken clouds,-6.6024,147.8681,Oasis Gagidu Ltd
368,Itarema,BR,77.9,scattered clouds,-2.9248,-39.9167,"Sea Lounge! Bar, Club & Restaurant"
369,Soe,ID,70.84,overcast clouds,-9.8607,124.284,Dena Hotel
370,Bonavista,CA,52.03,light rain,48.6499,-53.1147,Sweet Sharons bnb
371,Harbour Breton,CA,55.36,overcast clouds,47.4833,-55.7983,Southern Port Hotel
372,Kaeo,NZ,58.96,few clouds,-35.1,173.7833,Bushido Lodge
374,Kistarcsa,HU,52.23,light rain,47.5476,19.2625,Vis Vitalis Hotel
375,Tautira,PF,76.35,light rain,-17.7333,-149.15,Pension Oaoa
376,Broome,US,77.63,clear sky,42.2506,-75.833,Chenango Valley State Park
377,Beckley,US,77.56,clear sky,37.7782,-81.1882,"Country Inn & Suites by Radisson, Beckley, WV"
380,Burien,US,68.92,overcast clouds,47.4704,-122.3468,Red Roof Inn Seattle Airport - SEATAC
381,Buala,SB,83.46,broken clouds,-8.145,159.5921,Maringe Lagoon Lodge
383,Marrakesh,MA,75.27,scattered clouds,31.6315,-8.0083,Les Jardins de La Koutoubia
385,Abu Zabad,SD,76.6,broken clouds,12.35,29.25,حامد محمد نور
386,Manokwari,ID,80.37,overcast clouds,-0.8667,134.0833,Swiss Belhotel Manokwari
387,Price,US,74.12,overcast clouds,39.5994,-110.8107,National 9 - Price River Inn
389,Isangel,VU,80.71,few clouds,-19.55,169.2667,Tanna Lodge
390,Kukshi,IN,75.47,overcast clouds,22.2,74.75,City Pride Hotel
391,Baihar,IN,70.02,broken clouds,22.1,80.55,T3 RESORT & RESEARCH CENTRE
393,Huanuco,PE,68.29,broken clouds,-9.9329,-76.2415,Hostal Miraflores
395,Fukue,JP,80.55,moderate rain,32.6881,128.8419,Goto Guesthouse Utojuku & SA Car Rental
397,Mahajanga,MG,71.62,few clouds,-15.7167,46.3167,Hôtel Restaurant Gourmand Coco Lodge Majunga
399,Flinders,AU,62.06,clear sky,-34.5833,150.8552,Shellharbour Resort & Conference Centre
400,Salalah,OM,80.69,broken clouds,17.0151,54.0924,"HAMDAN PLAZA HOTEL SALALAH, an HTG Hotel"
401,Pafos,CY,74.98,clear sky,34.7667,32.4167,Elysium Hotel
402,Balikpapan,ID,77.99,few clouds,-1.2675,116.8289,Swiss-Belhotel Balikpapan
403,Green River,US,65.98,broken clouds,41.5286,-109.4662,Hampton Inn & Suites Green River
404,Zhangye,CN,69.12,overcast clouds,38.9342,100.4517,Zhangye Lvzhou Holiday Inn
407,Cartagena,CO,81.16,overcast clouds,10.3997,-75.5144,Hotel Colombia Real - Cartagena
408,Karratha,AU,71.28,clear sky,-20.7377,116.8463,ibis Styles Karratha
410,Watsa,CD,63.07,overcast clouds,3.0372,29.5355,Hôtel Le Pacifique
413,Tevaitoa,PF,78.12,clear sky,-16.7833,-151.5,Hôtel Raiatea Lodge
415,Richards Bay,ZA,66.04,broken clouds,-28.783,32.0377,BON Hotel Waterfront Richards Bay
416,Forfar,GB,52.07,overcast clouds,56.6431,-2.8903,Rose Villa Bed & Breakfast
419,Paita,PE,66.09,scattered clouds,-5.0892,-81.1144,Hotel Náutico de Paita
421,Pemangkat,ID,77.43,overcast clouds,1.1667,108.9667,Hotel Duyung Permai 2
423,Abong Mbang,CM,67.21,light rain,3.9833,13.1833,Auberge Angle Sur
424,Hokitika,NZ,54.32,broken clouds,-42.7167,170.9667,Beachfront Hotel Hokitika
426,Jega,NG,77.52,overcast clouds,12.2175,4.3792,ALH. Nasiru Ibrahim
427,Beyneu,KZ,70.21,scattered clouds,45.3167,55.2,NUR
428,Bafq,IR,76.55,clear sky,31.6128,55.4107,Alamdar Hotel
429,Descalvado,BR,65.28,clear sky,-21.9039,-47.6194,Hotel Descalvado
430,Linqu,CN,69.8,clear sky,36.5156,118.5397,Jiaohua Hotel
431,Ahipara,NZ,59.04,scattered clouds,-35.1667,173.1667,Ahipara Holiday Park
432,Belmonte,BR,72.46,broken clouds,-15.8631,-38.8828,Pousada Monte Carmelo O Pão
433,Varnavino,RU,51.51,broken clouds,57.4035,45.0916,Sibles PG Inn
434,Mao,ES,68.56,clear sky,39.8885,4.2658,ARTIEM Capri
436,Maine-Soroa,NE,78.03,overcast clouds,13.2114,12.0241,Complexe
438,Sao Francisco Do Sul,BR,60.71,broken clouds,-26.2433,-48.6381,Hotel Kontiki
439,Innisfail,AU,79.18,scattered clouds,-17.5333,146.0333,Moondarra Motel
440,Pithoro,PK,80.11,clear sky,25.5167,69.3833,Village Haji Muhammad Yousif Panhwar
441,Charters Towers,AU,76.35,scattered clouds,-20.1,146.2667,Cattleman's Rest Motor Inn
442,Biratnagar,NP,76.19,overcast clouds,26.4831,87.2834,HOTEL SHUVA
443,Virginia Beach,US,79.0,clear sky,36.8529,-75.978,Hilton Virginia Beach Oceanfront
444,Kuliyapitiya,LK,76.68,overcast clouds,7.4688,80.0401,Rest House
445,Mandera,KE,77.14,few clouds,3.9366,41.867,Red Sea Resort & Suites Mandera County
447,Athabasca,CA,52.21,broken clouds,54.7169,-113.2854,Athabasca Lodge Motel
449,Rabo De Peixe,PT,71.11,few clouds,37.8,-25.5833,Quinta das Giestas
450,Foca,TR,71.55,clear sky,38.6703,26.7566,Huri&Nuri Hotel
452,Acapulco,MX,76.82,overcast clouds,16.8634,-99.8901,HS Hotsson Smart Acapulco
453,Lekoni,GA,73.78,overcast clouds,-1.5843,14.2591,Rendez-vous Des ChasseursD
457,Tabuk,PH,75.45,broken clouds,17.4189,121.4443,Golden Berries Hotel and Convention
458,Pangkalanbuun,ID,75.11,heavy intensity rain,-2.6833,111.6167,Grand Kecubung Hotel
459,Erenhot,CN,51.24,clear sky,43.6475,111.9767,Erenhot Rurouni Youth Hostel
461,Swan River,CA,57.09,overcast clouds,52.1058,-101.2676,Super 8 by Wyndham Swan River MB
465,Road Town,VG,80.69,overcast clouds,18.4167,-64.6167,"ZINGARA 76ft Catamaran, full crew-all included"
466,Nurota,UZ,67.82,clear sky,40.5614,65.6886,Guest House Ruslan Nurata & Tours
469,Atessa,IT,56.52,broken clouds,42.0693,14.4511,Hotel Ristorante Al Duca
471,Palm Coast,US,82.09,scattered clouds,29.585,-81.2078,Hammock Beach Golf Resort & Spa
472,Kuala Terengganu,MY,76.95,few clouds,5.3302,103.1408,Hotel Grand Continental Kuala Terengganu (4 Star)
474,Mattru,SL,72.79,moderate rain,7.6244,-11.8332,"Mondkor Town, Bagbo Chiefdom, Bo District"
476,Morro Bay,US,79.18,few clouds,35.3658,-120.8499,Inn at Morro Bay
477,Necochea,AR,62.26,overcast clouds,-38.5473,-58.7368,dyd -mar Hotel
478,Athens,GR,81.7,clear sky,37.9795,23.7162,Safestay Athens
481,Namibe,AO,66.54,broken clouds,-15.1961,12.1522,Hotel Chik Chik Namibe
485,Carballo,ES,68.76,overcast clouds,43.213,-8.691,Pazo do Souto
486,Kalangala,UG,67.35,scattered clouds,-0.3089,32.225,Ssese Habitat Resort
487,Balingasay,PH,80.73,broken clouds,16.3573,119.8564,Rock Garden Resort
488,Gigmoto,PH,81.28,overcast clouds,13.7796,124.39,Cj's Travellers Inn
489,Plessisville,CA,53.87,overcast clouds,46.2186,-71.762,Motel le Phare
490,Guilin,CN,75.31,scattered clouds,25.2819,110.2864,Grand 0773 Hotel
491,Forestville,US,79.25,clear sky,38.8451,-76.875,Quality Inn Near Joint Base Andrews-Washington Area
492,Mahebourg,MU,71.26,scattered clouds,-20.4081,57.7,Shandrani Beachcomber Resort & Spa
493,Melilla,ES,75.58,overcast clouds,35.2937,-2.9383,Hotel Anfora
495,Kindu,CD,70.7,overcast clouds,-2.95,25.95,Résidence Okanda
496,Jumla,NP,59.14,overcast clouds,29.2747,82.1838,Royal Garden Hotel
497,Akyab,MM,79.41,overcast clouds,20.15,92.9,ဟိုတယ် မန်မိုရီ
498,Chincha Alta,PE,63.19,few clouds,-13.4099,-76.1323,Casa Andina Standard Chincha
499,Cody,US,74.01,overcast clouds,44.5263,-109.0565,"Holiday Inn Cody-at Buffalo Bill Village, an IHG Hotel"
500,Kutum,SD,72.88,few clouds,14.2,24.6667,Dibbo areaمنطقة دبو
501,Lashio,MM,66.09,broken clouds,22.9333,97.75,Hotel CF Lashio - Burmese Only
503,Beira,MZ,69.89,clear sky,-19.8436,34.8389,Beira Terrace Hotel
504,Mocuba,MZ,69.57,clear sky,-16.8392,36.9856,Phama Lodge
505,Chengde,CN,58.62,clear sky,40.9725,117.9361,Super 8 Hotel
507,Fare,PF,77.94,clear sky,-16.7,-151.0167,Maitai Lapita Village Huahine
508,Saint-Joseph,RE,68.38,light rain,-21.3667,55.6167,"""Plantation Bed and Breakfast"
509,Las Choapas,MX,79.84,overcast clouds,17.9333,-94.0833,Hotel Jysmak
510,Logrono,ES,56.7,clear sky,42.4667,-2.45,Hotel Gran Vía Logroño
511,Antalaha,MG,66.11,light rain,-14.9003,50.2788,Hotel Vitasoa
512,Warrington,GB,59.11,broken clouds,53.3925,-2.5802,Villaggio Hotel
517,Iquique,CL,60.84,few clouds,-20.2208,-70.1431,Backpacker`s Hostel Iquique
519,Dunedin,NZ,51.8,broken clouds,-45.8742,170.5036,Scenic Hotel Southern Cross
520,Nabire,ID,73.92,broken clouds,-3.3667,135.4833,Hotel Nusantara I
522,El Alto,PE,64.8,scattered clouds,-4.2714,-81.2147,Black Marlin Restaurant & Hospedaje
523,Catamarca,AR,82.78,broken clouds,-28.4696,-65.7852,Amerian Catamarca Park Hotel
525,Juliaca,PE,51.04,clear sky,-15.5,-70.1333,Don Julio Hotel
527,Nicoya,CR,75.36,overcast clouds,10.1483,-85.452,Las Cabinas Del Sueño
528,Palasa,IN,79.11,overcast clouds,18.7667,84.4167,Balaji tifen & meals veg & non veg hotel
529,Narsaq,GL,61.02,overcast clouds,60.9167,-46.05,Sleep In Narsaq
530,Puerto Del Rosario,ES,76.75,scattered clouds,28.5004,-13.8627,Hotel JM Puerto del Rosario
532,Shitanjing,CN,62.74,broken clouds,39.2342,106.3439,Yingbin Hotel
533,Lima,PE,59.25,broken clouds,-12.0432,-77.0282,Hotel Kamana
534,Pandan,PH,81.66,overcast clouds,14.0453,124.1694,Bonifacio Lodge
535,Calabozo,VE,77.59,overcast clouds,8.9242,-67.4293,Hotel Giardini
536,De-Kastri,RU,55.58,overcast clouds,51.4667,140.7833,Somon Hotel
537,Gimli,CA,59.02,overcast clouds,50.6336,-96.9907,Lakeview Gimli Resort
538,Sumenep,ID,79.59,broken clouds,-7.0167,113.8667,OYO 3271 Homestay Pandian
539,Careiro Da Varzea,BR,83.01,light rain,-3.2003,-59.8119,POUSADA DA ALDENORA
542,Challans,FR,55.6,clear sky,46.8436,-1.8749,Citotel Le Challans
543,Roebourne,AU,69.82,clear sky,-20.7833,117.1333,Latitude20 Roebourne Village
545,Madisonville,US,83.95,clear sky,37.3281,-87.4989,Days Inn by Wyndham Madisonville
546,Port Blair,IN,80.4,overcast clouds,11.6667,92.75,"Welcomhotel By ITC Hotels, Bay Island, Port Blair"
547,Bend,US,67.23,overcast clouds,44.0582,-121.3153,Fairfield Inn & Suites by Marriott Bend Downtown
548,Hami,CN,65.46,broken clouds,42.8,93.45,Laoyutang Resort
551,Salimpur,IN,79.52,clear sky,28.128,76.2766,Ashok kumar
552,Kanigiri,IN,81.16,overcast clouds,15.4,79.5167,COMFORT INN
553,Ginir,ET,60.49,scattered clouds,7.1333,40.7,Sura Dare Village
554,Mincivan,AZ,74.52,clear sky,39.0294,46.7185,اقامتگاه منجوان
555,Yarim,YE,59.22,overcast clouds,14.298,44.3779,وليد المسوري ابو اسد
556,Jiblah,YE,65.64,overcast clouds,13.9216,44.1467,Tiger Tower Hotel
558,Dwarka,IN,80.31,overcast clouds,22.2394,68.9678,Hotel Narayan Avezika Comfort
559,Norrtalje,SE,50.02,overcast clouds,59.758,18.705,Norrtälje Vandrarhem Hvilan
561,Kuusamo,FI,50.04,light rain,65.9667,29.1833,Hotel Kuusanka
562,Bandikui,IN,78.89,scattered clouds,27.05,76.5667,Mudgal's Paradise (Ravi Mudgal)
563,Kurilsk,RU,63.7,overcast clouds,45.2333,147.8833,Hotel Ostrov
566,Alice Springs,AU,57.22,clear sky,-23.7,133.8833,Desert Palms Alice Springs
568,Kalat,PK,62.8,clear sky,29.0225,66.5916,Balochi Biryani
569,Tucurui,BR,84.36,broken clouds,-3.7661,-49.6725,BBB Rooms Centro Tucurui PA
570,Kandrian,PG,83.43,light rain,-6.2167,149.55,Kandrian Station
571,Ponta Delgada,PT,72.32,few clouds,37.7333,-25.6667,Vila Nova Hotel
573,Medea,DZ,63.18,clear sky,36.2642,2.7539,Hôtel M'Sallah
574,Hobyo,SO,75.79,scattered clouds,5.3505,48.5268,Halane Hotel and Restaurent
575,Cabatuan,PH,78.51,overcast clouds,10.8794,122.486,MVC Transient Room
577,Kuryk,KZ,71.42,broken clouds,43.2,51.65,Gostinitsa Kuryk - Otel' Dlya Vsekh Kategoriy Kliyentov .
578,Mount Gambier,AU,51.71,broken clouds,-37.8333,140.7667,The Commodore
579,Huejuquilla El Alto,MX,74.01,overcast clouds,22.6,-103.8667,Hotel Huexuquillan
584,Sovetskiy,RU,51.26,overcast clouds,61.3614,63.5842,Apartment on Kievskaya 29
585,Pacific Grove,US,75.24,scattered clouds,36.6177,-121.9166,Lovers Point Inn
586,Hanzhong,CN,67.17,overcast clouds,33.0728,107.0303,Guorui Hotel
589,Mehran,IR,84.47,clear sky,33.1222,46.1646,بوتیک زنانه بهار
590,Longhua,CN,78.15,broken clouds,23.6137,114.1919,Huadu Hotel
591,Kharan,PK,81.82,clear sky,28.5833,65.4167,Dil Aram Bangla
592,Shu,KZ,60.84,broken clouds,43.5983,73.7614,Shyngyzkhan
593,Marzuq,YE,81.21,broken clouds,14.4,46.4667,حيد القفلة
597,Hearst,CA,53.85,overcast clouds,49.6835,-83.6665,Companion
599,Rio Do Sul,BR,53.2,clear sky,-27.2142,-49.6431,Hotel | Restaurante Aliança Express
600,Ulladulla,AU,59.9,few clouds,-35.35,150.4667,Sandpiper Motel
601,Palafrugell,ES,69.46,broken clouds,41.9174,3.1631,Hotel La Torre
602,Camamu,BR,70.86,few clouds,-13.9447,-39.1039,Hotel Rio Acarai
603,Huarmey,PE,64.92,few clouds,-10.0681,-78.1522,Hotel Miramar
604,Banepa,NP,64.89,overcast clouds,27.6298,85.5214,Dhulikhel Lodge Resort
605,Sungairaya,ID,77.07,overcast clouds,0.7,108.9,Rumah Kuku Moimoi Shelly
606,Mooresville,US,80.13,clear sky,35.5849,-80.8101,Fairfield Inn Charlotte Mooresville/Lake Norman
607,Lumsden,CA,71.01,overcast clouds,50.6501,-104.8678,Lumsden Hotel & Steak Pit
611,Oriximina,BR,81.82,broken clouds,-1.7656,-55.8661,Pousada Tia Amélia
612,Taunggyi,MM,63.07,overcast clouds,20.7833,97.0333,True Treasure Hotel
613,Bonthe,SL,76.1,moderate rain,7.5264,-12.505,Bonthe Holiday Village
614,Port Hardy,CA,60.98,few clouds,50.6996,-127.4199,Airport Inn-Port Hardy
615,Granada,ES,66.15,clear sky,37.25,-3.25,CORTIJO EL AVELLANO
616,Pokhara,NP,68.95,overcast clouds,28.2333,83.9833,OYO 170 Hotel View Point
617,Batemans Bay,AU,57.09,clear sky,-35.7167,150.1833,Batemans Bay Marina Resort
618,Martapura,ID,75.34,overcast clouds,-3.4167,114.85,Montana Hotel Syariah
619,Pingliang,CN,57.52,broken clouds,35.5392,106.6861,North Gate Hostel
620,Esna,EG,78.82,clear sky,25.2934,32.554,Orient Star Dahabyia Isna 05 Nights Each Sunday
623,Skibbereen,IE,50.09,scattered clouds,51.55,-9.2667,The West Cork Hotel
624,Port-Gentil,GA,78.76,overcast clouds,-0.7193,8.7815,Fengshui Residence
626,Nueva Guinea,NI,78.42,overcast clouds,11.6876,-84.4562,Posadita La Reyna
627,Huaidian,CN,69.78,clear sky,33.4333,115.0333,Xihuan Hotel
628,Mackay,AU,74.68,clear sky,-21.15,149.2,International Lodge Motel
629,Cape Girardeau,US,81.99,clear sky,37.3834,-89.7168,Independence Park Mobile Home Court
630,Tricase,IT,73.31,clear sky,39.9304,18.3553,Hotel Adriatico
631,Coos Bay,US,61.99,clear sky,43.3665,-124.2179,Best Western Holiday Hotel
632,Aswan,EG,83.5,clear sky,24.0934,32.907,Nuba Nile
633,Moose Factory,CA,57.2,clear sky,51.2585,-80.6094,Moosonee Lilypad
637,Mogadishu,SO,76.37,clear sky,2.0371,45.3438,Hotel Juba
639,Salamanca,ES,67.62,broken clouds,40.8333,-6.0,Palacio Carrascalino
641,Portel,BR,80.24,overcast clouds,-1.9356,-50.8211,Kitnet do Marcos
645,Xichang,CN,63.75,scattered clouds,27.8964,102.2634,Xichang ibis Hotel
646,Abnub,EG,77.22,clear sky,27.2696,31.1511,دوار ال عبد الجواد شرق البلد بابنوب
647,Kedougou,SN,75.78,thunderstorm,12.5579,-12.1743,Relais de Kédougou
648,Khor,RU,58.42,overcast clouds,47.8861,134.9464,Gostinitsa Deksi
649,Sioux Lookout,CA,59.07,light intensity drizzle,50.1001,-91.917,Knobby's Fly-In Camps
650,Constantine,DZ,69.21,scattered clouds,36.365,6.6147,Grand Hotel Cirta
653,Ishigaki,JP,80.73,broken clouds,24.3448,124.1572,Hotel Peace Land Ishigakijima
655,Oyama,JP,80.58,overcast clouds,36.3,139.8,Toyoko Inn Oyama-eki Higashi-guchi No.1
656,Nueve De Julio,AR,70.97,overcast clouds,-35.4444,-60.8831,Grand Hotel Libertad - GHL
658,Quatre Cocos,MU,71.1,light rain,-20.2078,57.7625,Sunrise Attitude Hotel
659,Honiara,SB,83.32,broken clouds,-9.4333,159.95,Heritage Park Hotel
660,Nago,JP,82.83,overcast clouds,26.5881,127.9761,Hotel Yugaf Inn Okinawa
661,Sulangan,PH,83.12,overcast clouds,11.1373,123.7228,Maia's Beach Resort
662,Derzhavinsk,KZ,52.27,clear sky,51.1,66.3167,Ooo.khim Baza
663,Drayton Valley,CA,57.43,broken clouds,53.2168,-114.9854,Service Plus Inns & Suites (Drayton Valley Hotel)
665,Jardim,BR,73.56,clear sky,-21.4803,-56.1381,Estancia Hotel - Jardim MS
